{
"type": "FeatureCollection",
"name": "NEON_SITES1",
"crs": { "type": "name", "properties": { "name": "urn:ogc:def:crs:OGC:1.3:CRS84" } },
"features": [
{ "type": "Feature", "properties": { "domainNumb": "D01", "domainName": "Northeast", "siteName": "Harvard Forest", "PMC": "D01CT1", "siteID": "harv", "siteType": "Core Terrestrial", "siteHost": "Harvard University, LTER", "stateID": "MA", "stateName": "Massachusetts", "latitude": 42.5369, "longitude": -72.17266, "site": "harv", "ID": "harv" }, "geometry": { "type": "Point", "coordinates": [ -72.17266, 42.5369 ] } },
{ "type": "Feature", "properties": { "domainNumb": "D01", "domainName": "Northeast", "siteName": "Bartlett Experimental Forest", "PMC": "D01RT1", "siteID": "bart", "siteType": "Relocatable Terrestrial", "siteHost": "U.S. Forest Service", "stateID": "NH", "stateName": "New Hampshire", "latitude": 44.06388, "longitude": -71.28731, "site": "bart", "ID": "bart" }, "geometry": { "type": "Point", "coordinates": [ -71.28731, 44.06388 ] } },
{ "type": "Feature", "properties": { "domainNumb": "D01", "domainName": "Northeast", "siteName": "Lower Hop Brook", "PMC": "D01CA1", "siteID": "hopb", "siteType": "Core Aquatic", "siteHost": "Quabbin DCR - Division of Water Supply Protection", "stateID": "MA", "stateName": "Massachusetts", "latitude": 42.471786, "longitude": -72.329627, "site": "hopb", "ID": "hopb" }, "geometry": { "type": "Point", "coordinates": [ -72.329627, 42.471786 ] } },
{ "type": "Feature", "properties": { "domainNumb": "D02", "domainName": "Mid-Atlantic", "siteName": "Smithsonian Conservation Biology Institute", "PMC": "D02CT1", "siteID": "scbi", "siteType": "Core Terrestrial", "siteHost": "Smithsonian Institution", "stateID": "VA", "stateName": "Virginia", "latitude": 38.89292, "longitude": -78.1395, "site": "scbi", "ID": "scbi" }, "geometry": { "type": "Point", "coordinates": [ -78.1395, 38.89292 ] } },
{ "type": "Feature", "properties": { "domainNumb": "D02", "domainName": "Mid-Atlantic", "siteName": "Blandy Experimental Farm", "PMC": "D02RT2", "siteID": "blan", "siteType": "Relocatable Terrestrial", "siteHost": "University of Virginia", "stateID": "VA", "stateName": "Virginia", "latitude": 39.06026, "longitude": -78.07164, "site": "blan", "ID": "blan" }, "geometry": { "type": "Point", "coordinates": [ -78.07164, 39.06026 ] } },
{ "type": "Feature", "properties": { "domainNumb": "D02", "domainName": "Mid-Atlantic", "siteName": "Smithsonian Environmental Research Center", "PMC": "D02RT1", "siteID": "serc", "siteType": "Relocatable Terrestrial", "siteHost": "Smithsonian Institution", "stateID": "MD", "stateName": "Maryland", "latitude": 38.89008, "longitude": -76.56001, "site": "serc", "ID": "serc" }, "geometry": { "type": "Point", "coordinates": [ -76.56001, 38.89008 ] } },
{ "type": "Feature", "properties": { "domainNumb": "D02", "domainName": "Mid-Atlantic", "siteName": "Posey Creek", "PMC": "D02CA1", "siteID": "pose", "siteType": "Core Aquatic", "siteHost": "Smithsonian Institution", "stateID": "VA", "stateName": "Virginia", "latitude": 38.89332, "longitude": -78.14678, "site": "pose", "ID": "pose" }, "geometry": { "type": "Point", "coordinates": [ -78.14678, 38.89332 ] } },
{ "type": "Feature", "properties": { "domainNumb": "D02", "domainName": "Mid-Atlantic", "siteName": "Lewis Run", "PMC": "D02RA1", "siteID": "lewi", "siteType": "Relocatable Aquatic", "siteHost": "Casey Trees", "stateID": "VA", "stateName": "Virginia", "latitude": 39.095637, "longitude": -77.983216, "site": "lewi", "ID": "lewi" }, "geometry": { "type": "Point", "coordinates": [ -77.983216, 39.095637 ] } },
{ "type": "Feature", "properties": { "domainNumb": "D03", "domainName": "Southeast", "siteName": "Ordway-Swisher Biological Station", "PMC": "D03CT1", "siteID": "osbs", "siteType": "Core Terrestrial", "siteHost": "University of Florida Foundation", "stateID": "FL", "stateName": "Florida", "latitude": 29.68927, "longitude": -81.99343, "site": "osbs", "ID": "osbs" }, "geometry": { "type": "Point", "coordinates": [ -81.99343, 29.68927 ] } },
{ "type": "Feature", "properties": { "domainNumb": "D03", "domainName": "Southeast", "siteName": "Disney Wilderness Preserve", "PMC": "D03RT1", "siteID": "dsny", "siteType": "Relocatable Terrestrial", "siteHost": "The Nature Conservancy", "stateID": "FL", "stateName": "Florida", "latitude": 28.12504, "longitude": -81.4362, "site": "dsny", "ID": "dsny" }, "geometry": { "type": "Point", "coordinates": [ -81.4362, 28.12504 ] } },
{ "type": "Feature", "properties": { "domainNumb": "D03", "domainName": "Southeast", "siteName": "Jones Ecological Research Center", "PMC": "D03RT2", "siteID": "jerc", "siteType": "Relocatable Terrestrial", "siteHost": "Private, Robert W. Woodruff Foundation", "stateID": "GA", "stateName": "Georgia", "latitude": 31.19484, "longitude": -84.46861, "site": "jerc", "ID": "jerc" }, "geometry": { "type": "Point", "coordinates": [ -84.46861, 31.19484 ] } },
{ "type": "Feature", "properties": { "domainNumb": "D03", "domainName": "Southeast", "siteName": "Barco Lake", "PMC": "D03CA2", "siteID": "barc", "siteType": "Core Aquatic", "siteHost": "University of Florida Foundation", "stateID": "FL", "stateName": "Florida", "latitude": 29.676473, "longitude": -82.009089, "site": "barc", "ID": "barc" }, "geometry": { "type": "Point", "coordinates": [ -82.009089, 29.676473 ] } },
{ "type": "Feature", "properties": { "domainNumb": "D03", "domainName": "Southeast", "siteName": "Suggs Lake", "PMC": "D03CA1", "siteID": "sugg", "siteType": "Core Aquatic", "siteHost": "University of Florida Foundation", "stateID": "FL", "stateName": "Florida", "latitude": 29.687054, "longitude": -82.016171, "site": "sugg", "ID": "sugg" }, "geometry": { "type": "Point", "coordinates": [ -82.016171, 29.687054 ] } },
{ "type": "Feature", "properties": { "domainNumb": "D03", "domainName": "Southeast", "siteName": "Flint River", "PMC": "D03RA1", "siteID": "flnt", "siteType": "Relocatable Aquatic", "siteHost": "Private, Robert W. Woodruff Foundation", "stateID": "GA", "stateName": "Georgia", "latitude": 31.185424, "longitude": -84.437403, "site": "flnt", "ID": "flnt" }, "geometry": { "type": "Point", "coordinates": [ -84.437403, 31.185424 ] } },
{ "type": "Feature", "properties": { "domainNumb": "D04", "domainName": "Atlantic Neotropical", "siteName": "Guanica Forest", "PMC": "D04CT1", "siteID": "guan", "siteType": "Core Terrestrial", "siteHost": "State Forest, Dept. of Natural and Environmental Resources, Commonwealth of Puerto Rico", "stateID": "PR", "stateName": "Puerto Rico", "latitude": 17.96955, "longitude": -66.8687, "site": "guan", "ID": "guan" }, "geometry": { "type": "Point", "coordinates": [ -66.8687, 17.96955 ] } },
{ "type": "Feature", "properties": { "domainNumb": "D04", "domainName": "Atlantic Neotropical", "siteName": "Lajas Experimental Station", "PMC": "D04RT1", "siteID": "laja", "siteType": "Relocatable Terrestrial", "siteHost": "University of Puerto Rico", "stateID": "PR", "stateName": "Puerto Rico", "latitude": 18.02125, "longitude": -67.0769, "site": "laja", "ID": "laja" }, "geometry": { "type": "Point", "coordinates": [ -67.0769, 18.02125 ] } },
{ "type": "Feature", "properties": { "domainNumb": "D04", "domainName": "Atlantic Neotropical", "siteName": "Rio Cupeyes", "PMC": "D04CA1", "siteID": "cupe", "siteType": "Core Aquatic", "siteHost": "Commonwealth of Puerto Rico", "stateID": "PR", "stateName": "Puerto Rico", "latitude": 18.11352, "longitude": -66.98676, "site": "cupe", "ID": "cupe" }, "geometry": { "type": "Point", "coordinates": [ -66.98676, 18.11352 ] } },
{ "type": "Feature", "properties": { "domainNumb": "D04", "domainName": "Atlantic Neotropical", "siteName": "Rio Guilarte", "PMC": "D04RA1", "siteID": "guil", "siteType": "Relocatable Aquatic", "siteHost": "University of Puerto Rico", "stateID": "PR", "stateName": "Puerto Rico", "latitude": 18.174104, "longitude": -66.79851, "site": "guil", "ID": "guil" }, "geometry": { "type": "Point", "coordinates": [ -66.79851, 18.174104 ] } },
{ "type": "Feature", "properties": { "domainNumb": "D05", "domainName": "Great Lakes", "siteName": "UNDERC", "PMC": "D05CT1", "siteID": "unde", "siteType": "Core Terrestrial", "siteHost": "University of Notre Dame Environmental Research Center", "stateID": "MI", "stateName": "Michigan", "latitude": 46.23388, "longitude": -89.53725, "site": "unde", "ID": "unde" }, "geometry": { "type": "Point", "coordinates": [ -89.53725, 46.23388 ] } },
{ "type": "Feature", "properties": { "domainNumb": "D05", "domainName": "Great Lakes", "siteName": "Steigerwaldt Land Services", "PMC": "D05RT1", "siteID": "stei", "siteType": "Relocatable Terrestrial", "siteHost": "Steigerwaldt Land Services", "stateID": "WI", "stateName": "Wisconsin", "latitude": 45.508942, "longitude": -89.586365, "site": "stei", "ID": "stei" }, "geometry": { "type": "Point", "coordinates": [ -89.586365, 45.508942 ] } },
{ "type": "Feature", "properties": { "domainNumb": "D05", "domainName": "Great Lakes", "siteName": "Treehaven", "PMC": "D05RT2", "siteID": "tree", "siteType": "Relocatable Terrestrial", "siteHost": "University of Wisconsin, Stevens Point", "stateID": "WI", "stateName": "Wisconsin", "latitude": 45.493691, "longitude": -89.58571, "site": "tree", "ID": "tree" }, "geometry": { "type": "Point", "coordinates": [ -89.58571, 45.493691 ] } },
{ "type": "Feature", "properties": { "domainNumb": "D05", "domainName": "Great Lakes", "siteName": "Crampton Lake", "PMC": "D05CA1", "siteID": "cram", "siteType": "Core Aquatic", "siteHost": "University of Notre Dame Environmental Research Center", "stateID": "WI", "stateName": "Wisconsin", "latitude": 46.211114, "longitude": -89.47825, "site": "cram", "ID": "cram" }, "geometry": { "type": "Point", "coordinates": [ -89.47825, 46.211114 ] } },
{ "type": "Feature", "properties": { "domainNumb": "D05", "domainName": "Great Lakes", "siteName": "Little Rock Lake", "PMC": "D05RA1", "siteID": "liro", "siteType": "Relocatable Aquatic", "siteHost": "Wisconsin Department of Natural Resources", "stateID": "WI", "stateName": "Wisconsin", "latitude": 45.998269, "longitude": -89.704767, "site": "liro", "ID": "liro" }, "geometry": { "type": "Point", "coordinates": [ -89.704767, 45.998269 ] } },
{ "type": "Feature", "properties": { "domainNumb": "D06", "domainName": "Prairie Peninsula", "siteName": "Konza Prairie Biological Station", "PMC": "D06CT1", "siteID": "konz", "siteType": "Core Terrestrial", "siteHost": "The Nature Conservancy, Kansas State University, LTER", "stateID": "KS", "stateName": "Kansas", "latitude": 39.10077, "longitude": -96.56309, "site": "konz", "ID": "konz" }, "geometry": { "type": "Point", "coordinates": [ -96.56309, 39.10077 ] } },
{ "type": "Feature", "properties": { "domainNumb": "D06", "domainName": "Prairie Peninsula", "siteName": "Konza Prairie Biological Station", "PMC": "D06RT2", "siteID": "kona", "siteType": "Relocatable Terrestrial", "siteHost": "The Nature Conservancy, Kansas State University", "stateID": "KS", "stateName": "Kansas", "latitude": 39.11044, "longitude": -96.61295, "site": "kona", "ID": "kona" }, "geometry": { "type": "Point", "coordinates": [ -96.61295, 39.11044 ] } },
{ "type": "Feature", "properties": { "domainNumb": "D06", "domainName": "Prairie Peninsula", "siteName": "The University of Kansas Field Station", "PMC": "D06RT1", "siteID": "ukfs", "siteType": "Relocatable Terrestrial", "siteHost": "University of Kansas", "stateID": "KS", "stateName": "Kansas", "latitude": 39.04043, "longitude": -95.19215, "site": "ukfs", "ID": "ukfs" }, "geometry": { "type": "Point", "coordinates": [ -95.19215, 39.04043 ] } },
{ "type": "Feature", "properties": { "domainNumb": "D06", "domainName": "Prairie Peninsula", "siteName": "Kings Creek", "PMC": "D06CA1", "siteID": "king", "siteType": "Core Aquatic", "siteHost": "The Nature Conservancy, Kansas State University, LTER", "stateID": "KS", "stateName": "Kansas", "latitude": 39.105064, "longitude": -96.603359, "site": "king", "ID": "king" }, "geometry": { "type": "Point", "coordinates": [ -96.603359, 39.105064 ] } },
{ "type": "Feature", "properties": { "domainNumb": "D06", "domainName": "Prairie Peninsula", "siteName": "McDiffett Creek", "PMC": "D06RA1", "siteID": "mcdi", "siteType": "Relocatable Aquatic", "siteHost": "KSU Charitable Real Estate Foundation, Private", "stateID": "KS", "stateName": "Kansas", "latitude": 38.944276, "longitude": -96.441967, "site": "mcdi", "ID": "mcdi" }, "geometry": { "type": "Point", "coordinates": [ -96.441967, 38.944276 ] } },
{ "type": "Feature", "properties": { "domainNumb": "D07", "domainName": "Appalachians & Cumberland Plateau", "siteName": "Oak Ridge", "PMC": "D07CT1", "siteID": "ornl", "siteType": "Core Terrestrial", "siteHost": "U.S. Department of Energy", "stateID": "TN", "stateName": "Tennessee", "latitude": 35.96412, "longitude": -84.2826, "site": "ornl", "ID": "ornl" }, "geometry": { "type": "Point", "coordinates": [ -84.2826, 35.96412 ] } },
{ "type": "Feature", "properties": { "domainNumb": "D07", "domainName": "Appalachians & Cumberland Plateau", "siteName": "Great Smoky Mountains National Park, Twin Creeks", "PMC": "D07RT2", "siteID": "grsm", "siteType": "Relocatable Terrestrial", "siteHost": "National Park Service", "stateID": "TN", "stateName": "Tennessee", "latitude": 35.68896, "longitude": -83.50195, "site": "grsm", "ID": "grsm" }, "geometry": { "type": "Point", "coordinates": [ -83.50195, 35.68896 ] } },
{ "type": "Feature", "properties": { "domainNumb": "D07", "domainName": "Appalachians & Cumberland Plateau", "siteName": "Mountain Lake Biological Station", "PMC": "D07RT1", "siteID": "mlbs", "siteType": "Relocatable Terrestrial", "siteHost": "Private, University of Virginia", "stateID": "VA", "stateName": "Virginia", "latitude": 37.37828, "longitude": -80.52484, "site": "mlbs", "ID": "mlbs" }, "geometry": { "type": "Point", "coordinates": [ -80.52484, 37.37828 ] } },
{ "type": "Feature", "properties": { "domainNumb": "D07", "domainName": "Appalachians & Cumberland Plateau", "siteName": "Walker Branch", "PMC": "D07CA1", "siteID": "walk", "siteType": "Core Aquatic", "siteHost": "U.S. Department of Energy", "stateID": "TN", "stateName": "Tennessee", "latitude": 35.959469, "longitude": -84.280413, "site": "walk", "ID": "walk" }, "geometry": { "type": "Point", "coordinates": [ -84.280413, 35.959469 ] } },
{ "type": "Feature", "properties": { "domainNumb": "D07", "domainName": "Appalachians & Cumberland Plateau", "siteName": "LeConte Creek", "PMC": "D07RA1", "siteID": "leco", "siteType": "Relocatable Aquatic", "siteHost": "National Park Service", "stateID": "TN", "stateName": "Tennessee", "latitude": 35.690428, "longitude": -83.50379, "site": "leco", "ID": "leco" }, "geometry": { "type": "Point", "coordinates": [ -83.50379, 35.690428 ] } },
{ "type": "Feature", "properties": { "domainNumb": "D08", "domainName": "Ozarks Complex", "siteName": "Talladega National Forest", "PMC": "D08CT1", "siteID": "tall", "siteType": "Core Terrestrial", "siteHost": "U.S. Forest Service", "stateID": "AL", "stateName": "Alabama", "latitude": 32.95046, "longitude": -87.39327, "site": "tall", "ID": "tall" }, "geometry": { "type": "Point", "coordinates": [ -87.39327, 32.95046 ] } },
{ "type": "Feature", "properties": { "domainNumb": "D08", "domainName": "Ozarks Complex", "siteName": "Dead Lake", "PMC": "D08RT1", "siteID": "dela", "siteType": "Relocatable Terrestrial", "siteHost": "U.S. Army Corps of Engineers", "stateID": "AL", "stateName": "Alabama", "latitude": 32.54172, "longitude": -87.80389, "site": "dela", "ID": "dela" }, "geometry": { "type": "Point", "coordinates": [ -87.80389, 32.54172 ] } },
{ "type": "Feature", "properties": { "domainNumb": "D08", "domainName": "Ozarks Complex", "siteName": "Lenoir Landing", "PMC": "D08RT2", "siteID": "leno", "siteType": "Relocatable Terrestrial", "siteHost": "U.S. Army Corps of Engineers", "stateID": "AL", "stateName": "Alabama", "latitude": 31.85388, "longitude": -88.16122, "site": "leno", "ID": "leno" }, "geometry": { "type": "Point", "coordinates": [ -88.16122, 31.85388 ] } },
{ "type": "Feature", "properties": { "domainNumb": "D08", "domainName": "Ozarks Complex", "siteName": "Mayfield Creek", "PMC": "D08CA1", "siteID": "mayf", "siteType": "Core Aquatic", "siteHost": "U.S. Forest Service", "stateID": "AL", "stateName": "Alabama", "latitude": 32.959657, "longitude": -87.408128, "site": "mayf", "ID": "mayf" }, "geometry": { "type": "Point", "coordinates": [ -87.408128, 32.959657 ] } },
{ "type": "Feature", "properties": { "domainNumb": "D08", "domainName": "Ozarks Complex", "siteName": "Black Warrior River near Dead Lake", "PMC": "D08RA1", "siteID": "blwa", "siteType": "Relocatable Aquatic", "siteHost": "U.S. Army Corps of Engineers, Private", "stateID": "AL", "stateName": "Alabama", "latitude": 32.541529, "longitude": -87.798151, "site": "blwa", "ID": "blwa" }, "geometry": { "type": "Point", "coordinates": [ -87.798151, 32.541529 ] } },
{ "type": "Feature", "properties": { "domainNumb": "D08", "domainName": "Ozarks Complex", "siteName": "Lower Tombigbee River at Choctaw Refuge", "PMC": "D08RA2", "siteID": "tomb", "siteType": "Relocatable Aquatic", "siteHost": "U.S. Army Corps of Engineers, University of South Alabama Foundation", "stateID": "AL", "stateName": "Alabama", "latitude": 31.852096, "longitude": -88.161065, "site": "tomb", "ID": "tomb" }, "geometry": { "type": "Point", "coordinates": [ -88.161065, 31.852096 ] } },
{ "type": "Feature", "properties": { "domainNumb": "D09", "domainName": "Northern Plains", "siteName": "Woodworth", "PMC": "D09CT1", "siteID": "wood", "siteType": "Core Terrestrial", "siteHost": "U.S. Geological Survey, U.S. Fish and Wildlife Service", "stateID": "ND", "stateName": "North Dakota", "latitude": 47.128228, "longitude": -99.241356, "site": "wood", "ID": "wood" }, "geometry": { "type": "Point", "coordinates": [ -99.241356, 47.128228 ] } },
{ "type": "Feature", "properties": { "domainNumb": "D09", "domainName": "Northern Plains", "siteName": "Dakota Coteau Field School", "PMC": "D09RT1", "siteID": "dcfs", "siteType": "Relocatable Terrestrial", "siteHost": "State of North Dakota Land Trust", "stateID": "ND", "stateName": "North Dakota", "latitude": 47.161647, "longitude": -99.106556, "site": "dcfs", "ID": "dcfs" }, "geometry": { "type": "Point", "coordinates": [ -99.106556, 47.161647 ] } },
{ "type": "Feature", "properties": { "domainNumb": "D09", "domainName": "Northern Plains", "siteName": "Northern Great Plains Research Laboratory", "PMC": "D09RT2", "siteID": "nogp", "siteType": "Relocatable Terrestrial", "siteHost": "U.S. Department of Agriculture, Agricultural Research Service", "stateID": "ND", "stateName": "North Dakota", "latitude": 46.76972, "longitude": -100.91535, "site": "nogp", "ID": "nogp" }, "geometry": { "type": "Point", "coordinates": [ -100.91535, 46.76972 ] } },
{ "type": "Feature", "properties": { "domainNumb": "D09", "domainName": "Northern Plains", "siteName": "Prairie Pothole", "PMC": "D09CA1", "siteID": "prpo", "siteType": "Core Aquatic", "siteHost": "U.S. Geological Survey, U.S. Fish and Wildlife Service", "stateID": "ND", "stateName": "North Dakota", "latitude": 47.12999, "longitude": -99.250551, "site": "prpo", "ID": "prpo" }, "geometry": { "type": "Point", "coordinates": [ -99.250551, 47.12999 ] } },
{ "type": "Feature", "properties": { "domainNumb": "D09", "domainName": "Northern Plains", "siteName": "Prairie lake at Dakota Coteau Field School", "PMC": "D09RA1", "siteID": "prla", "siteType": "Relocatable Aquatic", "siteHost": "State of North Dakota Land Trust", "stateID": "ND", "stateName": "North Dakota", "latitude": 47.15909, "longitude": -99.11388, "site": "prla", "ID": "prla" }, "geometry": { "type": "Point", "coordinates": [ -99.11388, 47.15909 ] } },
{ "type": "Feature", "properties": { "domainNumb": "D10", "domainName": "Central Plains", "siteName": "Central Plains Experimental Range", "PMC": "D10CT1", "siteID": "cper", "siteType": "Core Terrestrial", "siteHost": "U.S. Department of Agriculture, Agriculture Research Service, LTER", "stateID": "CO", "stateName": "Colorado", "latitude": 40.815534, "longitude": -104.745602, "site": "cper", "ID": "cper" }, "geometry": { "type": "Point", "coordinates": [ -104.745602, 40.815534 ] } },
{ "type": "Feature", "properties": { "domainNumb": "D10", "domainName": "Central Plains", "siteName": "North Sterling, CO", "PMC": "D10RT1", "siteID": "ster", "siteType": "Relocatable Terrestrial", "siteHost": "Private", "stateID": "CO", "stateName": "Colorado", "latitude": 40.461903, "longitude": -103.029297, "site": "ster", "ID": "ster" }, "geometry": { "type": "Point", "coordinates": [ -103.029297, 40.461903 ] } },
{ "type": "Feature", "properties": { "domainNumb": "D10", "domainName": "Central Plains", "siteName": "Rocky Mountain National Park, CASTNET", "PMC": "D10RT2", "siteID": "rmnp", "siteType": "Relocatable Terrestrial", "siteHost": "National Park Service", "stateID": "CO", "stateName": "Colorado", "latitude": 40.27591, "longitude": -105.54592, "site": "rmnp", "ID": "rmnp" }, "geometry": { "type": "Point", "coordinates": [ -105.54592, 40.27591 ] } },
{ "type": "Feature", "properties": { "domainNumb": "D10", "domainName": "Central Plains", "siteName": "Arikaree River", "PMC": "D10CA1", "siteID": "arik", "siteType": "Core Aquatic", "siteHost": "The Nature Conservancy", "stateID": "CO", "stateName": "Colorado", "latitude": 39.758246, "longitude": -102.447103, "site": "arik", "ID": "arik" }, "geometry": { "type": "Point", "coordinates": [ -102.447103, 39.758246 ] } },
{ "type": "Feature", "properties": { "domainNumb": "D11", "domainName": "Southern Plains", "siteName": "LBJ National Grassland", "PMC": "D11CT1", "siteID": "clbj", "siteType": "Core Terrestrial", "siteHost": "U. S. Forest Service", "stateID": "TX", "stateName": "Texas", "latitude": 33.40123, "longitude": -97.57, "site": "clbj", "ID": "clbj" }, "geometry": { "type": "Point", "coordinates": [ -97.57, 33.40123 ] } },
{ "type": "Feature", "properties": { "domainNumb": "D11", "domainName": "Southern Plains", "siteName": "Klemme Range Research Station", "PMC": "D11RT1", "siteID": "oaes", "siteType": "Relocatable Terrestrial", "siteHost": "Oklahoma State University, Oklahoma Agricultural Experimental Station", "stateID": "OK", "stateName": "Oklahoma", "latitude": 35.41059, "longitude": -99.05879, "site": "oaes", "ID": "oaes" }, "geometry": { "type": "Point", "coordinates": [ -99.05879, 35.41059 ] } },
{ "type": "Feature", "properties": { "domainNumb": "D11", "domainName": "Southern Plains", "siteName": "Pringle Creek", "PMC": "D11CA1", "siteID": "prin", "siteType": "Core Aquatic", "siteHost": "U. S. Forest Service", "stateID": "TX", "stateName": "Texas", "latitude": 33.378589, "longitude": -97.782258, "site": "prin", "ID": "prin" }, "geometry": { "type": "Point", "coordinates": [ -97.782258, 33.378589 ] } },
{ "type": "Feature", "properties": { "domainNumb": "D11", "domainName": "Southern Plains", "siteName": "Blue River", "PMC": "D11RA1", "siteID": "blue", "siteType": "Relocatable Aquatic", "siteHost": "The Nature Conservancy", "stateID": "OK", "stateName": "Oklahoma", "latitude": 34.444218, "longitude": -96.624201, "site": "blue", "ID": "blue" }, "geometry": { "type": "Point", "coordinates": [ -96.624201, 34.444218 ] } },
{ "type": "Feature", "properties": { "domainNumb": "D12", "domainName": "Northern Rockies", "siteName": "Yellowstone Northern Range (Frog Rock)", "PMC": "D12CT1", "siteID": "yell", "siteType": "Core Terrestrial", "siteHost": "National Park Service", "stateID": "WY", "stateName": "Wyoming", "latitude": 44.95348, "longitude": -110.53914, "site": "yell", "ID": "yell" }, "geometry": { "type": "Point", "coordinates": [ -110.53914, 44.95348 ] } },
{ "type": "Feature", "properties": { "domainNumb": "D12", "domainName": "Northern Rockies", "siteName": "Blacktail Deer Creek", "PMC": "D12CA1", "siteID": "blde", "siteType": "Core Aquatic", "siteHost": "National Park Service", "stateID": "WY", "stateName": "Wyoming", "latitude": 44.95011, "longitude": -110.58715, "site": "blde", "ID": "blde" }, "geometry": { "type": "Point", "coordinates": [ -110.58715, 44.95011 ] } },
{ "type": "Feature", "properties": { "domainNumb": "D13", "domainName": "Southern Rockies & Colorado Plateau", "siteName": "Niwot Ridge Mountain Research Station", "PMC": "D13CT1", "siteID": "niwo", "siteType": "Core Terrestrial", "siteHost": "University of Colorado at Boulder, U.S. Forest Service, LTER", "stateID": "CO", "stateName": "Colorado", "latitude": 40.05425, "longitude": -105.58237, "site": "niwo", "ID": "niwo" }, "geometry": { "type": "Point", "coordinates": [ -105.58237, 40.05425 ] } },
{ "type": "Feature", "properties": { "domainNumb": "D13", "domainName": "Southern Rockies & Colorado Plateau", "siteName": "Moab", "PMC": "D13RT1", "siteID": "moab", "siteType": "Relocatable Terrestrial", "siteHost": "Bureau of Land Management", "stateID": "UT", "stateName": "Utah", "latitude": 38.24833, "longitude": -109.38827, "site": "moab", "ID": "moab" }, "geometry": { "type": "Point", "coordinates": [ -109.38827, 38.24833 ] } },
{ "type": "Feature", "properties": { "domainNumb": "D13", "domainName": "Southern Rockies & Colorado Plateau", "siteName": "Como Creek", "PMC": "D13CA1", "siteID": "como", "siteType": "Core Aquatic", "siteHost": "U.S Forest Service, Boulder County", "stateID": "CO", "stateName": "Colorado", "latitude": 40.03496, "longitude": -105.54487, "site": "como", "ID": "como" }, "geometry": { "type": "Point", "coordinates": [ -105.54487, 40.03496 ] } },
{ "type": "Feature", "properties": { "domainNumb": "D13", "domainName": "Southern Rockies & Colorado Plateau", "siteName": "West St Louis Creek", "PMC": "D13RA1", "siteID": "wlou", "siteType": "Relocatable Aquatic", "siteHost": "U.S. Forest Service", "stateID": "CO", "stateName": "Colorado", "latitude": 39.891366, "longitude": -105.915395, "site": "wlou", "ID": "wlou" }, "geometry": { "type": "Point", "coordinates": [ -105.915395, 39.891366 ] } },
{ "type": "Feature", "properties": { "domainNumb": "D14", "domainName": "Desert Southwest", "siteName": "Santa Rita Experimental Range", "PMC": "D14CT1", "siteID": "srer", "siteType": "Core Terrestrial", "siteHost": "University of Arizona", "stateID": "AZ", "stateName": "Arizona", "latitude": 31.91068, "longitude": -110.83549, "site": "srer", "ID": "srer" }, "geometry": { "type": "Point", "coordinates": [ -110.83549, 31.91068 ] } },
{ "type": "Feature", "properties": { "domainNumb": "D14", "domainName": "Desert Southwest", "siteName": "Jornada LTER", "PMC": "D14RT1", "siteID": "jorn", "siteType": "Relocatable Terrestrial", "siteHost": "U.S. Department of Agriculture, Agricultural Research Service", "stateID": "NM", "stateName": "New Mexico", "latitude": 32.59068, "longitude": -106.84254, "site": "jorn", "ID": "jorn" }, "geometry": { "type": "Point", "coordinates": [ -106.84254, 32.59068 ] } },
{ "type": "Feature", "properties": { "domainNumb": "D14", "domainName": "Desert Southwest", "siteName": "Sycamore Creek", "PMC": "D14CA1", "siteID": "syca", "siteType": "Core Aquatic", "siteHost": "U. S. Forest Service", "stateID": "AZ", "stateName": "Arizona", "latitude": 33.749057, "longitude": -111.506903, "site": "syca", "ID": "syca" }, "geometry": { "type": "Point", "coordinates": [ -111.506903, 33.749057 ] } },
{ "type": "Feature", "properties": { "domainNumb": "D15", "domainName": "Great Basin", "siteName": "Onaqui", "PMC": "D15CT1", "siteID": "onaq", "siteType": "Core Terrestrial", "siteHost": "Bureau of Land Management", "stateID": "UT", "stateName": "Utah", "latitude": 40.17759, "longitude": -112.45244, "site": "onaq", "ID": "onaq" }, "geometry": { "type": "Point", "coordinates": [ -112.45244, 40.17759 ] } },
{ "type": "Feature", "properties": { "domainNumb": "D15", "domainName": "Great Basin", "siteName": "Red Butte Creek", "PMC": "D15CA1", "siteID": "redb", "siteType": "Core Aquatic", "siteHost": "U.S. Forest Service, University of Utah", "stateID": "UT", "stateName": "Utah", "latitude": 40.783742, "longitude": -111.797652, "site": "redb", "ID": "redb" }, "geometry": { "type": "Point", "coordinates": [ -111.797652, 40.783742 ] } },
{ "type": "Feature", "properties": { "domainNumb": "D16", "domainName": "Pacific Northwest", "siteName": "Wind River Experimental Forest", "PMC": "D16CT1", "siteID": "wref", "siteType": "Core Terrestrial", "siteHost": "U.S. Forest Service", "stateID": "WA", "stateName": "Washington", "latitude": 45.820488, "longitude": -121.951912, "site": "wref", "ID": "wref" }, "geometry": { "type": "Point", "coordinates": [ -121.951912, 45.820488 ] } },
{ "type": "Feature", "properties": { "domainNumb": "D16", "domainName": "Pacific Northwest", "siteName": "Abby Road", "PMC": "D16RT2", "siteID": "abby", "siteType": "Relocatable Terrestrial", "siteHost": "Washington Department of Natural Resources", "stateID": "WA", "stateName": "Washington", "latitude": 45.76243, "longitude": -122.33033, "site": "abby", "ID": "abby" }, "geometry": { "type": "Point", "coordinates": [ -122.33033, 45.76243 ] } },
{ "type": "Feature", "properties": { "domainNumb": "D16", "domainName": "Pacific Northwest", "siteName": "Martha Creek", "PMC": "D16CA1", "siteID": "mart", "siteType": "Core Aquatic", "siteHost": "U.S. Forest Service", "stateID": "WA", "stateName": "Washington", "latitude": 45.791248, "longitude": -121.931959, "site": "mart", "ID": "mart" }, "geometry": { "type": "Point", "coordinates": [ -121.931959, 45.791248 ] } },
{ "type": "Feature", "properties": { "domainNumb": "D16", "domainName": "Pacific Northwest", "siteName": "McRae Creek", "PMC": "D16RA1", "siteID": "mcra", "siteType": "Relocatable Aquatic", "siteHost": "HJ Andrews Experimental Forest, U.S. Forest Service, Oregon State University", "stateID": "OR", "stateName": "Oregon", "latitude": 44.259598, "longitude": -122.165554, "site": "mcra", "ID": "mcra" }, "geometry": { "type": "Point", "coordinates": [ -122.165554, 44.259598 ] } },
{ "type": "Feature", "properties": { "domainNumb": "D17", "domainName": "Pacific Southwest", "siteName": "San Joaquin", "PMC": "D17CT1", "siteID": "sjer", "siteType": "Core Terrestrial", "siteHost": "U.S. Forest Service", "stateID": "CA", "stateName": "California", "latitude": 37.10878, "longitude": -119.73228, "site": "sjer", "ID": "sjer" }, "geometry": { "type": "Point", "coordinates": [ -119.73228, 37.10878 ] } },
{ "type": "Feature", "properties": { "domainNumb": "D17", "domainName": "Pacific Southwest", "siteName": "Lower Teakettle", "PMC": "D17RT2", "siteID": "teak", "siteType": "Relocatable Terrestrial", "siteHost": "U.S. Forest Service", "stateID": "CA", "stateName": "California", "latitude": 37.00583, "longitude": -119.00602, "site": "teak", "ID": "teak" }, "geometry": { "type": "Point", "coordinates": [ -119.00602, 37.00583 ] } },
{ "type": "Feature", "properties": { "domainNumb": "D17", "domainName": "Pacific Southwest", "siteName": "Soaproot Saddle", "PMC": "D17RT1", "siteID": "soap", "siteType": "Relocatable Terrestrial", "siteHost": "U.S. Forest Service", "stateID": "CA", "stateName": "California", "latitude": 37.03337, "longitude": -119.26219, "site": "soap", "ID": "soap" }, "geometry": { "type": "Point", "coordinates": [ -119.26219, 37.03337 ] } },
{ "type": "Feature", "properties": { "domainNumb": "D17", "domainName": "Pacific Southwest", "siteName": "Teakettle 2 Creek", "PMC": "D17CA1", "siteID": "tecr", "siteType": "Core Aquatic", "siteHost": "U.S. Forest Service", "stateID": "CA", "stateName": "California", "latitude": 36.955282, "longitude": -119.026986, "site": "tecr", "ID": "tecr" }, "geometry": { "type": "Point", "coordinates": [ -119.026986, 36.955282 ] } },
{ "type": "Feature", "properties": { "domainNumb": "D17", "domainName": "Pacific Southwest", "siteName": "Upper Big Creek", "PMC": "D17RA1", "siteID": "bigc", "siteType": "Relocatable Aquatic", "siteHost": "U.S. Forest Service", "stateID": "CA", "stateName": "California", "latitude": 37.057995, "longitude": -119.255996, "site": "bigc", "ID": "bigc" }, "geometry": { "type": "Point", "coordinates": [ -119.255996, 37.057995 ] } },
{ "type": "Feature", "properties": { "domainNumb": "D18", "domainName": "Tundra", "siteName": "Toolik", "PMC": "D18CT1", "siteID": "tool", "siteType": "Core Terrestrial", "siteHost": "Bureau of Land Management", "stateID": "AK", "stateName": "Alaska", "latitude": 68.66109, "longitude": -149.37047, "site": "tool", "ID": "tool" }, "geometry": { "type": "Point", "coordinates": [ -149.37047, 68.66109 ] } },
{ "type": "Feature", "properties": { "domainNumb": "D18", "domainName": "Tundra", "siteName": "Utqiaġvik", "PMC": "D18RT1", "siteID": "barr", "siteType": "Relocatable Terrestrial", "siteHost": "Ukpeaġvik Iñupiat Corporation", "stateID": "AK", "stateName": "Alaska", "latitude": 71.28241, "longitude": -156.61936, "site": "barr", "ID": "barr" }, "geometry": { "type": "Point", "coordinates": [ -156.61936, 71.28241 ] } },
{ "type": "Feature", "properties": { "domainNumb": "D18", "domainName": "Tundra", "siteName": "Oksrukuyik Creek", "PMC": "D18CA1", "siteID": "oksr", "siteType": "Core Aquatic", "siteHost": "Bureau of Land Management", "stateID": "AK", "stateName": "Alaska", "latitude": 68.669753, "longitude": -149.143018, "site": "oksr", "ID": "oksr" }, "geometry": { "type": "Point", "coordinates": [ -149.143018, 68.669753 ] } },
{ "type": "Feature", "properties": { "domainNumb": "D18", "domainName": "Tundra", "siteName": "Toolik Lake", "PMC": "D18RA1", "siteID": "took", "siteType": "Relocatable Aquatic", "siteHost": "Bureau of Land Management", "stateID": "AK", "stateName": "Alaska", "latitude": 68.630692, "longitude": -149.610636, "site": "took", "ID": "took" }, "geometry": { "type": "Point", "coordinates": [ -149.610636, 68.630692 ] } },
{ "type": "Feature", "properties": { "domainNumb": "D19", "domainName": "Taiga", "siteName": "Caribou-Poker Creeks Research Watershed", "PMC": "D19CT1", "siteID": "bona", "siteType": "Core Terrestrial", "siteHost": "University of Alaska", "stateID": "AK", "stateName": "Alaska", "latitude": 65.15401, "longitude": -147.50258, "site": "bona", "ID": "bona" }, "geometry": { "type": "Point", "coordinates": [ -147.50258, 65.15401 ] } },
{ "type": "Feature", "properties": { "domainNumb": "D19", "domainName": "Taiga", "siteName": "Delta Junction", "PMC": "D19RT1", "siteID": "deju", "siteType": "Relocatable Terrestrial", "siteHost": "Bureau of Land Management", "stateID": "AK", "stateName": "Alaska", "latitude": 63.88112, "longitude": -145.75136, "site": "deju", "ID": "deju" }, "geometry": { "type": "Point", "coordinates": [ -145.75136, 63.88112 ] } },
{ "type": "Feature", "properties": { "domainNumb": "D19", "domainName": "Taiga", "siteName": "Healy", "PMC": "D19RT3", "siteID": "heal", "siteType": "Relocatable Terrestrial", "siteHost": "Alaska Department of Natural Resources", "stateID": "AK", "stateName": "Alaska", "latitude": 63.87569, "longitude": -149.21334, "site": "heal", "ID": "heal" }, "geometry": { "type": "Point", "coordinates": [ -149.21334, 63.87569 ] } },
{ "type": "Feature", "properties": { "domainNumb": "D19", "domainName": "Taiga", "siteName": "Caribou Creek, Caribou-Poker Creeks Research Watershed", "PMC": "D19CA1", "siteID": "cari", "siteType": "Core Aquatic", "siteHost": "University of Alaska", "stateID": "AK", "stateName": "Alaska", "latitude": 65.15306, "longitude": -147.50246, "site": "cari", "ID": "cari" }, "geometry": { "type": "Point", "coordinates": [ -147.50246, 65.15306 ] } },
{ "type": "Feature", "properties": { "domainNumb": "D20", "domainName": "Pacific Tropical", "siteName": "Pu'u Maka'ala Natural Area Reserve", "PMC": "D20CT1", "siteID": "puum", "siteType": "Core Terrestrial", "siteHost": "Hawaii State Forest Reserve System Department of Land and Natural Resources, Division of Forestry and Wildlife", "stateID": "HI", "stateName": "Hawaii", "latitude": 19.55309, "longitude": -155.31731, "site": "puum", "ID": "puum" }, "geometry": { "type": "Point", "coordinates": [ -155.31731, 19.55309 ] } }
]
}
